[
        {
            "id": "M042",
            "title": "健保署北區業務組 桃園聯絡辦公室",
            "address": "桃園市桃園區介壽路11-4號",
            "telephone": "03-433-9111",
            "hours": "08:30 - 17:30",
            "figure": "MUN-042.jpeg",
            "link": "https://www.nhi.gov.tw/",
            "type": "公共服務"
        },
        {
            "id": "M043",
            "title": "勞工保險局 桃園辦事處",
            "address": "桃園市桃園區縣府路26號",
            "telephone": "03-335-0003",
            "hours": "08:30 - 17:30",
            "figure": "MUN-043.jpeg",
            "link": "https://www.bli.gov.tw/0100158.html",
            "type": "公共服務"
        },
        {
            "id": "M002",
            "title": "財政部北區國稅局",
            "address": "桃園市桃園區三元街156號",
            "telephone": "03-339-6789",
            "hours": "星期一至星期五 8:30-12:30, 13:00-17:00",
            "figure": "MUN-002.jpeg",
            "link": "https://www.ntbna.gov.tw/",
            "type": "公共服務"
        },
        {
            "id": "M044",
            "title": "新竹區監理所 桃園監理站",
            "address": "桃園市桃園區介壽路416號",
            "telephone": "03-366-4222",
            "hours": "08:00 - 17:00 ",
            "figure": "MUN-044.jpeg",
            "link": "https://hmv.thb.gov.tw/cl.aspx?n=1315",
            "type": "公共服務"
        },
        {
            "id": "M001",
            "title": "桃園圖書館總館",
            "address": "桃園市桃園區南平路303號",
            "telephone": "03-316-6345",
            "hours": "週二-週六 08:30 - 21:00, 週日-週一 08:30 - 17:00",
            "figure": "MUN-001.jpeg",
            "link": "https://lifetree.typl.gov.tw/",
            "type": "公共服務"
        },
        {
            "id": "M039",
            "title": "新北林口圖書館 ",
            "address": "新北市林口區忠孝二路55號4-5樓",
            "telephone": "02-2609-1417",
            "hours": "08:30 - 21:00",
            "figure": "MUN-039.jpeg",
            "link": "https://www.library.ntpc.gov.tw/",
            "type": "公共服務"
        },
        {
            "id": "M040",
            "title": "兒童專屬圖書館　林口李科永紀念圖書館 ",
            "address": "新北市林口區公園路192號",
            "telephone": "02=2608-5930",
            "hours": "週日,一 08:30 - 17:00 週二～六 08:30 - 21:00 ",
            "figure": "MUN-040.jpeg",
            "link": "https://info.library.ntpc.gov.tw/branch/opencms/branch/afb8639b-0fdd-11ee-ae0d-000c29a02f4a/",
            "type": "公共服務"
        },
        {
            "id": "M041",
            "title": "林口國民運動中心",
            "address": "新北市林口區文化二路二段299號",
            "telephone": "02-2602-9092",
            "hours": "06:00 - 22:00",
            "figure": "MUN-041.jpeg",
            "link": "https://lkcsc.cyc.org.tw/",
            "type": "公共服務"
        },
        {
            "id": "M003",
            "title": "龜山區公所",
            "address": "桃園市龜山區中山街 26 號",
            "telephone": "03-320-3711 ~ 6",
            "hours": "星期一至星期五 8:00-12:00, 13:00-17:00",
            "figure": "MUN-003.jpeg",
            "link": "https://www.guishan.tycg.gov.tw/",
            "type": "公共服務"
        },
        {
            "id": "M004",
            "title": "龜山戶政事務所",
            "address": "桃園市龜山區自強南路99號",
            "telephone": "03-320-1922",
            "hours": "星期一至星期五 7:00-17:00, 週六09:00-12:00",
            "figure": "MUN-004.jpeg",
            "link": "https://www.guishan-hro.tycg.gov.tw/",
            "type": "公共服務"
        },
        {
            "id": "M005",
            "title": "龜山地政事務所",
            "address": "桃園市龜山區自強南路105號",
            "telephone": "03-359-6480",
            "hours": "星期一至星期五 08:00 - 17:00",
            "figure": "MUN-005.jpeg",
            "link": "https://www.guishan-land.tycg.gov.tw/",
            "type": "公共服務"
        },
        {
            "id": "M006",
            "title": "龜山大華親子館",
            "address": "桃園市龜山區文化七路118巷7號2樓",
            "telephone": "03-327-0237",
            "hours": "09:00 - 12:00, 14:00 - 17:00 週一公休",
            "figure": "MUN-006.jpeg",
            "link": "https://babycare.tycg.gov.tw/#/home",
            "type": "公共服務"
        },
        {
            "id": "M007",
            "title": "龜山區親子館",
            "address": "桃園市龜山區自強南路97號99號戶政事務所旁的入口2F",
            "telephone": "03-359-5251",
            "hours": "每週二至週日 08:30 - 17:00 ",
            "figure": "MUN-007.jpeg",
            "link": "https://www.facebook.com/guishan2021/",
            "type": "公共服務"
        },
        {
            "id": "M008",
            "title": "龜山區衛生所",
            "address": "桃園市龜山區自強南路103號",
            "telephone": "03-329-9645",
            "hours": "周一至周五08:00–12:00, 13:00–17:00",
            "figure": "MUN-008.jpeg",
            "link": "https://www.guishan-phc.tycg.gov.tw/",
            "type": "公共服務"
        },
        {
            "id": "M038",
            "title": "林口區衛生所",
            "address": "新北市林口區忠孝二路55號1樓",
            "telephone": "02-2606-8760",
            "hours": "08:30 - 11:30",
            "figure": "MUN-038.jpeg",
            "link": "https://linkou.health.ntpc.gov.tw/",
            "type": "公共服務"
        },
        {
            "id": "M009",
            "title": "警察局龜山分局",
            "address": "桃園市龜山區自強南路123號",
            "telephone": "03-329-2701",
            "hours": "24小時",
            "figure": "MUN-009.jpeg",
            "link": "https://www.typd.gov.tw/guishan/",
            "type": "公共服務"
        },
        {
            "id": "M013",
            "title": "龜山分局大埔派出所",
            "address": "桃園市龜山區文德二路80號",
            "telephone": "03-318-6447",
            "figure": "MUN-013.jpeg",
            "link": "https://www.typd.gov.tw/#gsc.tab=0",
            "type": "公共服務",
            "description": "桃園市政府警察局：<a href=\"https://tvrweb.typd.gov.tw:3443/\">\r\n\t\t\t\t\t\t\t\t\t\t\t\t交通違規檢舉專區</a> <br>檢舉說明\r\n\t\t\t\t\t\t\t\t\t\t\t<ol>\r\n\t\t\t\t\t\t\t\t\t\t\t\t<li>違規車輛號牌：違規車號清晰可辨及車輛顏色。</li>\r\n\t\t\t\t\t\t\t\t\t\t\t\t<li>違規事實：應攝入相關標誌、標線或地點；如為標線，顏色須清楚可辨；車輛駕駛人是否在場（以辦識該車屬臨時停車或停車之狀態</li>\r\n\t\t\t\t\t\t\t\t\t\t\t\t<li>違規時之日期及時間。</li>\r\n\t\t\t\t\t\t\t\t\t\t\t</ol>\r\n\t\t\t\t\t\t\t\t\t\t\t使用含日期地點的照相軟體: 時間相機App <a\r\n\t\t\t\t\t\t\t\t\t\t\t\thref=\"https://play.google.com/store/apps/details?id=com.jeyluta.timestampcamerafree&hl=zh_TW&gl=US\">Google\r\n\t\t\t\t\t\t\t\t\t\t\t\tPlay</a>,\r\n\t\t\t\t\t\t\t\t\t\t\t<a href=\"https://apps.apple.com/tw/app/%E6%99%82%E9%96%93%E7%9B%B8%E6%A9%9F/id840110184\">App\r\n\t\t\t\t\t\t\t\t\t\t\t\tStore</a>"
        },
        {
            "id": "M010",
            "title": "大坪頂便民工作站",
            "address": "桃園市龜山區文化二路95號二樓 桃園市龜山區農會公西辦事處二樓",
            "telephone": "03-397-0110",
            "hours": "每週二、四 09:00 - 12:00",
            "figure": "MUN-010.jpeg",
            "link": "https://www.guishan-hro.tycg.gov.tw/home.jsp?id=167&parentpath=0,10",
            "type": "公共服務"
        },
        {
            "id": "M011",
            "title": "桃園市環境清潔稽查大隊",
            "address": "桃園市龜山區中山街26號",
            "telephone": "03-350-3877",
            "figure": "MUN-011.jpeg",
            "link": "https://www.tyemid.gov.tw/Convenience/Details/3",
            "type": "公共服務",
            "description": "桃園市環境清潔稽查大隊\r\n\t\t\t\t\t\t\t\t\t\t\t<ul>\r\n\t\t\t\t\t\t\t\t\t\t\t\t<li>\r\n\t\t\t\t\t\t\t\t\t\t\t\t\t<a href=\"https://www.tyemid.gov.tw/Convenience/Details/3\">大型傢俱清運申請</a>:\r\n\t\t\t\t\t\t\t\t\t\t\t\t\t龜山區 申請電話 03-350-3877, 地址 龜山區中山街26號\r\n\t\t\t\t\t\t\t\t\t\t\t\t</li>\r\n\t\t\t\t\t\t\t\t\t\t\t\t<li>\r\n\t\t\t\t\t\t\t\t\t\t\t\t\t髒亂點查報：桃園市政信箱 / 市政建議 / 噪音, 污染及環境維護 <a\r\n\t\t\t\t\t\t\t\t\t\t\t\t\t\thref=\"https://taotalk.tycg.gov.tw/main/PageCtrl?p=p_1\">髒亂點查報</a>,\r\n\t\t\t\t\t\t\t\t\t\t\t\t\t環保報案專線 03-335-4943, 0800-066-666\r\n\t\t\t\t\t\t\t\t\t\t\t\t\t有專人24小時接聽處理並會告知登錄案號，後續可上網查詢處理結果或來電告知案號即可詢問處理結果。或洽詢「1999」市民諮詢服務熱線，歡迎多加利用。\r\n\t\t\t\t\t\t\t\t\t\t\t\t</li>\r\n\t\t\t\t\t\t\t\t\t\t\t\t<li>\r\n\t\t\t\t\t\t\t\t\t\t\t\t\t亂丟垃圾拍照檢舉管道： <a href=\"https://www.tyemid.gov.tw/Convenience/Details/8\">檢舉違反廢棄物清理法</a>\r\n\t\t\t\t\t\t\t\t\t\t\t\t</li>\r\n\r\n\t\t\t\t\t\t\t\t\t\t\t</ul>"
        },
        {
            "id": "M012",
            "title": "桃園市政信箱",
            "address": "桃園市桃園區縣府路一號 ",
            "telephone": "03-332-2101",
            "figure": "MUN-012.jpeg",
            "link": "https://taotalk.tycg.gov.tw/main/PageCtrl?p=p_1",
            "type": "公共服務"
        },
        {
            "id": "M014",
            "title": "大崗國民中學",
            "address": "桃園市龜山區文化二路168號",
            "telephone": "03-328-0888",
            "figure": "MUN-014.jpeg",
            "link": "http://www.dgjh.tyc.edu.tw/",
            "type": "公共服務"
        },
        {
            "id": "M015",
            "title": "樂善國民小學",
            "address": "桃園市龜山區樂安街71號",
            "telephone": "03-3281002",
            "figure": "MUN-015.jpeg",
            "link": "http://www2.leses.tyc.edu.tw/school/web/index.php",
            "type": "公共服務"
        },
        {
            "id": "M016",
            "title": "長庚國民小學",
            "address": "桃園市龜山區長庚里425號",
            "telephone": "03-318-2643",
            "figure": "MUN-016.jpeg",
            "link": "http://www.cgps.tyc.edu.tw/index1.htm",
            "type": "公共服務"
        },
        {
            "id": "M017",
            "title": "文青國中小學",
            "address": "桃園市龜山區樂善二路778號",
            "telephone": "03-359-4000",
            "figure": "MUN-017.jpeg",
            "link": "https://1.wcjps.tyc.edu.tw/index.php?fbclid=IwAR2lLV_md3V7ZB83kOmbEHYyHF-tJEiJZR773IUX-tPIOd3IR__2_Tw8uqM",
            "type": "公共服務"
        },
        {
            "id": "M018",
            "title": "文青非營利幼兒園",
            "address": "桃園市龜山區樂善二路778-1號",
            "telephone": "03-328-7201",
            "hours": "07:30 - 19:00 週六日公休",
            "figure": "MUN-018.jpeg",
            "link": "https://www.facebook.com/p/%E6%A1%83%E5%9C%92%E5%B8%82%E6%96%87%E9%9D%92%E9%9D%9E%E7%87%9F%E5%88%A9%E5%B9%BC%E5%85%92%E5%9C%92-%E5%A7%94%E8%A8%97%E7%A4%BE%E5%9C%98%E6%B3%95%E4%BA%BA%E8%87%BA%E7%81%A3%E4%BA%9E%E6%B4%B2%E5%AD%B8%E5%89%8D%E6%95%99%E8%82%B2%E5%9F%B9%E8%A8%93%E5%8D%94%E6%9C%83%E8%BE%A6%E7%90%86-100092942253127/?paipv=0&eav=AfYZEv5OVHGCPCTPlayODL_padX8xf0oMDQF-PhKXrocdLlhMMcCIRA1hSyIKFp7z04&_rdr",
            "type": "公共服務"
        },
        {
            "id": "M019",
            "title": "文德非營利幼兒園",
            "address": "桃園市龜山區文德二路88號",
            "telephone": "03-397-9511, 397-9146",
            "figure": "MUN-019.jpeg",
            "link": "https://www.safe.org.tw/about/family/kindergarten/14",
            "type": "公共服務"
        },
        {
            "id": "M020",
            "title": "大崗國小附設幼兒園",
            "address": "桃園市龜山區大崗村12鄰55號",
            "telephone": "03-397-2886",
            "figure": "MUN-020.jpeg",
            "link": "http://www.dges.tyc.edu.tw/",
            "type": "公共服務"
        },
        {
            "id": "M021",
            "title": "樂善國小附設幼兒園",
            "address": "桃園市龜山區樂善里11鄰樂安街71號",
            "telephone": "03-328-1002#910",
            "figure": "MUN-021.jpeg",
            "link": "http://www4.leses.tyc.edu.tw/happy/preschool/",
            "type": "公共服務"
        },
        {
            "id": "M022",
            "title": "桃欣天然氣股份有限公司",
            "address": "桃園市桃園區法治路10號",
            "telephone": " 03-335-2191 轉 500",
            "hours": "8:30 - 17:00",
            "figure": "MUN-022.jpeg",
            "link": "http://www.shintaogas.com.tw/Home/home/default.aspx",
            "type": "公共服務"
        },
        {
            "id": "M023",
            "title": "台灣自來水公司第二區管理處龜山服務所",
            "address": "桃園市龜山區光峰路2號",
            "telephone": "03-329-4999",
            "hours": "8:00 - 17:00",
            "figure": "MUN-023.jpeg",
            "link": "https://www2.water.gov.tw/ch2/00index/home.asp",
            "type": "公共服務"
        },
        {
            "id": "M024",
            "title": "台灣電力公司林口服務所",
            "address": "桃園市龜山區文化一路51號",
            "telephone": "03-211-1911",
            "hours": "8:00 - 17:00",
            "figure": "MUN-024.jpeg",
            "link": "https://branch.taipower.com.tw/Content/Messagess/contents.aspx?&SiteID=564766277367364243&MmmID=564766315067672172&MSID=616164715712543701",
            "type": "公共服務"
        },
        {
            "id": "M025",
            "title": "龜山文化郵局",
            "address": "桃園市龜山區文昌一街102號",
            "telephone": "03-328-2617",
            "hours": "郵務 08:30 - 17:30，儲匯 08:30 - 17:00",
            "figure": "MUN-025.jpeg",
            "link": "https://www.post.gov.tw/post/internet/I_location/index_post.jsp?prsb_no=012125-3",
            "type": "公共服務"
        },
        {
            "id": "M027",
            "title": "龜山長庚大學郵局",
            "address": "桃園市龜山區文化一路259號",
            "telephone": "03-211-8633",
            "hours": "週一至週五 郵務:08:30-17:00",
            "figure": "MUN-027.jpeg",
            "link": "https://www.post.gov.tw/post/internet/I_location/index_post.jsp?prsb_no=012136-1",
            "type": "公共服務"
        },
        {
            "id": "M028",
            "title": "龜山樂善郵局",
            "address": "桃園市龜山區復興街5號",
            "telephone": "03-328-2459",
            "hours": " 週一至週五 郵務:08:30-17:00",
            "figure": "MUN-028.jpeg",
            "link": "https://www.post.gov.tw/post/internet/I_location/index_post.jsp?prsb_no=012117-6",
            "type": "公共服務"
        },
        {
            "id": "M026",
            "title": "龜山文青郵政代辦所",
            "address": "桃園市龜山區文青路300號",
            "hours": "10:00-17:00",
            "figure": "MUN-026.jpeg",
            "link": "https://www.post.gov.tw/post/internet/I_location/index.jsp?ID=1906&topage=2&PreRowDatas=10&mid_area_sn=012000",
            "type": "公共服務"
        },
        {
            "id": "M029",
            "title": "郵筒-長庚里里民活動中心",
            "address": "\r\n桃園市龜山區長庚醫護新村80號B1",
            "hours": "平日, 限時",
            "figure": "MUN-029.jpeg",
            "link": "https://www.post.gov.tw/post/internet/Postal/index.jsp?ID=1467189235792",
            "type": "公共服務"
        },
        {
            "id": "M030",
            "title": "郵筒-文化一路",
            "address": "桃園市龜山區文化一路53號",
            "telephone": "03-318-5741",
            "hours": "平日 09:00",
            "figure": "MUN-030.jpeg",
            "link": "https://www.post.gov.tw/post/internet/I_location/index_map_box.jsp?id=1859",
            "type": "公共服務"
        },
        {
            "id": "M031",
            "title": "郵筒-文德路",
            "address": "桃園市龜山區文德路25號",
            "telephone": "03-318-5741",
            "hours": "平日 10:00",
            "figure": "MUN-031.jpeg",
            "link": "https://www.post.gov.tw/post/internet/I_location/index_map_box.jsp?id=10977",
            "type": "公共服務"
        },
        {
            "id": "M032",
            "title": "中華電信龜山長庚服務中心",
            "address": "桃園市龜山區復興一路310號",
            "telephone": "080-008-0123",
            "hours": "11:00 - 20:30",
            "figure": "MUN-032.jpeg",
            "link": "https://www.cht.com.tw/home/cht/about-cht/business-group/store-locator",
            "type": "公共服務"
        },
        {
            "id": "M033",
            "title": "遠傳林口長庚直營門市",
            "address": "桃園市龜山區復興一路128號",
            "telephone": "03-211-4010",
            "hours": "12:00 - 21:30",
            "figure": "MUN-033.jpeg",
            "link": "https://www.fetnet.net/content/cbu/tw/index.html",
            "type": "公共服務"
        },
        {
            "id": "M034",
            "title": "台灣之星 龜山文化服務中心",
            "address": "桃園市龜山區文化二路65號",
            "telephone": "0968-744-248",
            "hours": "12:30 - 21:00",
            "figure": "MUN-034.jpeg",
            "link": "https://www.tstartel.com/CWS/",
            "type": "公共服務"
        },
        {
            "id": "M035",
            "title": "凱擘大寬頻 / 北桃園數位有線電視",
            "address": "桃園市桃園區大興西路二段65號5樓",
            "telephone": "03-250-7794, 03-261-8968, 03-301-7131",
            "hours": "09:00 - 18:00",
            "figure": "MUN-035.jpeg",
            "link": "https://ntyc.kbro.com.tw/K09/cm-promo-more-2_3_0_603_160.html",
            "type": "公共服務"
        },
        {
            "id": "M036",
            "title": "JGNet 宅急網",
            "address": "桃園市桃園區中正路1221號2樓",
            "telephone": "03-355-7460",
            "hours": "週一~週六 10:00 - 20:00, 週日 10:00 - 18:00",
            "figure": "MUN-036.jpeg",
            "link": "https://www.jgnet.tw/",
            "type": "公共服務"
        },
        {
            "id": "M037",
            "title": "Kingnet 今網寬頻",
            "telephone": "03-412-8166",
            "hours": "週一至週五 09：00~24：00, 例假日 09：00~22：00",
            "figure": "MUN-037.jpeg",
            "link": "https://top1.kingnet.net.tw/",
            "type": "公共服務"
        }
    ]